[
  {
    "id": 662114,
    "name": "Ghioca",
    "state": "",
    "country": "RO",
    "coord": {
      "lon": 24.73333,
      "lat": 44.316669
    }
  },
  {
    "id": 662118,
    "name": "Zvori≈ütea",
    "state": "",
    "country": "RO",
    "coord": {
      "lon": 26.283331,
      "lat": 47.833328
    }
  },
  {
    "id": 725213,
    "name": "Beloslav",
    "state": "",
    "country": "BG",
    "coord": {
      "lon": 27.700001,
      "lat": 43.183331
    }
  },
  {
    "id": 725230,
    "name": "Zverino",
    "state": "",
    "country": "BG",
    "coord": {
      "lon": 23.549999,
      "lat": 43.083328
    }
  },
  {
    "id": 2633331,
    "name": "Ystradowen",
    "state": "",
    "country": "GB",
    "coord": {
      "lon": -3.42194,
      "lat": 51.490559
    }
  },
  {
    "id": 2633332,
    "name": "Ystrad Mynach",
    "state": "",
    "country": "GB",
    "coord": {
      "lon": -3.2362,
      "lat": 51.642761
    }
  },
  {
    "id": 4031574,
    "name": "Provideniya",
    "state": "",
    "country": "RU",
    "coord": {
      "lon": -173.300003,
      "lat": 64.383331
    }
  },
  {
    "id": 4031625,
    "name": "Lorino",
    "state": "",
    "country": "RU",
    "coord": {
      "lon": -171.716675,
      "lat": 65.5
    }
  },
  {
    "id": 6643953,
    "name": "Yangla",
    "state": "",
    "country": "CN",
    "coord": {
      "lon": 99.1278,
      "lat": 28.94183
    }
  },
  {
    "id": 6643959,
    "name": "Foshan",
    "state": "",
    "country": "CN",
    "coord": {
      "lon": 98.806122,
      "lat": 28.734011
    }
  },
  {
    "id": 7667580,
    "name": "Gurjaani",
    "state": "",
    "country": "GE",
    "coord": {
      "lon": 45.799999,
      "lat": 41.75
    }
  },
  {
    "id": 7667581,
    "name": "Telavi",
    "state": "",
    "country": "GE",
    "coord": {
      "lon": 45.48333,
      "lat": 41.916672
    }
  },
  {
    "id": 7910877,
    "name": "Fanari",
    "state": "",
    "country": "GR",
    "coord": {
      "lon": 26.35247,
      "lat": 37.674068
    }
  },
  {
    "id": 7667930,
    "name": "Ymittos",
    "state": "",
    "country": "GR",
    "coord": {
      "lon": 23.74897,
      "lat": 37.953419
    }
  },
  {
    "id": 7668824,
    "name": "Artemisa",
    "state": "",
    "country": "CU",
    "coord": {
      "lon": -82.756058,
      "lat": 22.813999
    }
  },
  {
    "id": 7668827,
    "name": "Provincia Mayabeque",
    "state": "",
    "country": "CU",
    "coord": {
      "lon": -82.147179,
      "lat": 22.96155
    }
  },
  {
    "id": 7668874,
    "name": "Tonoas Municipal Building",
    "state": "",
    "country": "FM",
    "coord": {
      "lon": 151.884323,
      "lat": 7.37597
    }
  },
  {
    "id": 7668879,
    "name": "Weno Municipal Offices",
    "state": "",
    "country": "FM",
    "coord": {
      "lon": 151.841034,
      "lat": 7.44428
    }
  },
  {
    "id": 7669002,
    "name": "Silver Creek",
    "state": "",
    "country": "CA",
    "coord": {
      "lon": -121.464539,
      "lat": 49.360802
    }
  },
  {
    "id": 7669003,
    "name": "Popkum",
    "state": "",
    "country": "CA",
    "coord": {
      "lon": -121.738129,
      "lat": 49.203659
    }
  }
]